[{"scope": "A", "groupCode": "AV", "name": "Avon", "latitude": 51.4589653, "longitude": -2.52582669}, {"scope": "G", "groupCode": "AV01", "name": "Bristol", "latitude": 51.4826546, "longitude": -2.65058184}, {"scope": "G", "groupCode": "AV02", "name": "Somer Valley", "latitude": 51.2892342, "longitude": -2.46324921}, {"scope": "G", "groupCode": "AV03", "name": "Southwold (Yate)", "latitude": 51.55389, "longitude": -2.3991847}, {"scope": "G", "groupCode": "AV04", "name": "Bath", "latitude": 51.3586731, "longitude": -2.47568583}, {"scope": "G", "groupCode": "AV05", "name": "Severnside", "latitude": 51.58872, "longitude": -2.57681632}, {"scope": "G", "groupCode": "AV07", "name": "Kingswood", "latitude": 51.4619675, "longitude": -2.416202}, {"scope": "G", "groupCode": "AV08", "name": "Clevedon", "latitude": 51.4278641, "longitude": -2.74788952}, {"scope": "S", "groupCode": "AV50", "name": "Brunel Walking & Activity", "latitude": 51.46758, "longitude": -2.50516915}, {"scope": "A", "groupCode": "BF", "name": "Bedfordshire", "latitude": 52.0732422, "longitude": -0.451514125}, {"scope": "G", "groupCode": "BF01", "name": "North Bedfordshire", "latitude": 52.1275063, "longitude": -0.4522945}, {"scope": "G", "groupCode": "BF03", "name": "Leighton Buzzard", "latitude": 51.9438477, "longitude": -0.6002409}, {"scope": "G", "groupCode": "BF04", "name": "Ivel Valley", "latitude": 52.0685158, "longitude": -0.31713447}, {"scope": "G", "groupCode": "BF06", "name": "Lea & Icknield (Luton)", "latitude": 51.914505, "longitude": -0.4572989}, {"scope": "A", "groupCode": "BK", "name": "Berkshire", "latitude": 51.45039, "longitude": -1.07270229}, {"scope": "G", "groupCode": "BK01", "name": "East Berkshire", "latitude": 51.5089035, "longitude": -0.7561598}, {"scope": "G", "groupCode": "BK02", "name": "Mid Berkshire", "latitude": 51.41555, "longitude": -1.08634555}, {"scope": "G", "groupCode": "BK03", "name": "West Berkshire", "latitude": 51.4563522, "longitude": -1.396136}, {"scope": "G", "groupCode": "BK04", "name": "South East Berks", "latitude": 51.40813, "longitude": -0.7397097}, {"scope": "G", "groupCode": "BK05", "name": "Pang Valley", "latitude": 51.47964, "longitude": -1.14850116}, {"scope": "G", "groupCode": "BK06", "name": "Loddon Valley", "latitude": 51.4294472, "longitude": -0.8838196}, {"scope": "G", "groupCode": "BK07", "name": "Windsor & District", "latitude": 51.46696, "longitude": -0.604121864}, {"scope": "S", "groupCode": "BK40", "name": "Berkshire Weekend Walkers", "latitude": 51.4503746, "longitude": -1.10264266}, {"scope": "S", "groupCode": "BK50", "name": "Berkshire Walkers", "latitude": 51.4503746, "longitude": -1.04264259}, {"scope": "A", "groupCode": "BU", "name": "Buckinghamshire, Milton Keynes and West Middlesex", "latitude": 51.79127, "longitude": -0.736783445}, {"scope": "G", "groupCode": "BU01", "name": "Amersham & District", "latitude": 51.6645164, "longitude": -0.6219411}, {"scope": "G", "groupCode": "BU03", "name": "Aylesbury & District", "latitude": 51.8336754, "longitude": -0.8645039}, {"scope": "G", "groupCode": "BU04", "name": "Hillingdon", "latitude": 51.54251, "longitude": -0.4705601}, {"scope": "G", "groupCode": "BU05", "name": "Milton Keynes & District", "latitude": 52.026123, "longitude": -0.8024979}, {"scope": "G", "groupCode": "BU06", "name": "North West London", "latitude": 51.57966, "longitude": -0.30739373}, {"scope": "G", "groupCode": "BU09", "name": "Wycombe District", "latitude": 51.6363945, "longitude": -0.7915131}, {"scope": "S", "groupCode": "BU40", "name": "Chilterns Weekend Walkers", "latitude": 51.7430954, "longitude": -0.7374334}, {"scope": "S", "groupCode": "BU50", "name": "Hike MK", "latitude": 52.0259972, "longitude": -0.8326323}, {"scope": "S", "groupCode": "BU51", "name": "Chiltern Young Walkers", "latitude": 51.6849327, "longitude": -0.692094445}, {"scope": "A", "groupCode": "CA", "name": "Carmarthenshire", "latitude": 51.8995628, "longitude": -4.162727}, {"scope": "G", "groupCode": "CA01", "name": "Carmarthen & District", "latitude": 51.89396, "longitude": -4.37041664}, {"scope": "G", "groupCode": "CA02", "name": "Dinefwr", "latitude": 51.95543, "longitude": -3.91543174}, {"scope": "G", "groupCode": "CA03", "name": "Llanelli", "latitude": 51.72089, "longitude": -4.190723}, {"scope": "A", "groupCode": "CB", "name": "Cambridgeshire & Peterborough", "latitude": 52.3671761, "longitude": 0.004277236}, {"scope": "G", "groupCode": "CB01", "name": "Cambridge", "latitude": 52.1739845, "longitude": 0.08346895}, {"scope": "G", "groupCode": "CB02", "name": "Huntingdonshire", "latitude": 52.3737335, "longitude": -0.220769957}, {"scope": "G", "groupCode": "CB03", "name": "Peterborough", "latitude": 52.6085243, "longitude": -0.223090917}, {"scope": "G", "groupCode": "CB04", "name": "Fenland", "latitude": 52.56293, "longitude": 0.06081205}, {"scope": "S", "groupCode": "CB50", "name": "Peterborough Younger Walkers", "latitude": 52.6085167, "longitude": -0.2531866}, {"scope": "S", "groupCode": "CB51", "name": "Walk Cambridge", "latitude": 52.3398552, "longitude": 0.0333181359}, {"scope": "A", "groupCode": "CE", "name": "Ceredigion", "latitude": 52.25597, "longitude": -4.072179}, {"scope": "G", "groupCode": "CE01", "name": "Aberystwyth", "latitude": 52.374054, "longitude": -3.93267536}, {"scope": "G", "groupCode": "CE02", "name": "Cardigan & District", "latitude": 52.10071, "longitude": -4.4412365}, {"scope": "G", "groupCode": "CE03", "name": "Lampeter", "latitude": 52.1737, "longitude": -4.05281448}, {"scope": "A", "groupCode": "CF", "name": "Forth Valley, Fife & Tayside", "latitude": 56.47429, "longitude": -3.66237116}, {"scope": "G", "groupCode": "CF01", "name": "Dalgety Bay & District", "latitude": 56.0553551, "longitude": -3.33617878}, {"scope": "G", "groupCode": "CF02", "name": "Dunfermline and West Fife Ramblers", "latitude": 56.0921478, "longitude": -3.50216222}, {"scope": "G", "groupCode": "CF03", "name": "Perth & District", "latitude": 56.4272423, "longitude": -3.65104032}, {"scope": "G", "groupCode": "CF04", "name": "Glenrothes", "latitude": 56.1816864, "longitude": -3.19985843}, {"scope": "G", "groupCode": "CF05", "name": "Dundee & District", "latitude": 56.4740143, "longitude": -3.01413965}, {"scope": "G", "groupCode": "CF06", "name": "Forfar & District", "latitude": 56.699295, "longitude": -3.00458741}, {"scope": "G", "groupCode": "CF08", "name": "St Andrews & North East Fife", "latitude": 56.3092422, "longitude": -2.967135}, {"scope": "G", "groupCode": "CF09", "name": "Kirkcaldy", "latitude": 56.1508064, "longitude": -3.11993432}, {"scope": "G", "groupCode": "CF10", "name": "Blairgowrie & District", "latitude": 56.7399, "longitude": -3.46320581}, {"scope": "G", "groupCode": "CF11", "name": "Stirling, Falkirk & District", "latitude": 56.0685, "longitude": -3.83275151}, {"scope": "G", "groupCode": "CF12", "name": "Brechin", "latitude": 56.8133965, "longitude": -2.78958058}, {"scope": "G", "groupCode": "CF14", "name": "Kinross & Ochil", "latitude": 56.2003059, "longitude": -3.50323439}, {"scope": "G", "groupCode": "CF15", "name": "Strathtay", "latitude": 56.7015266, "longitude": -4.11493635}, {"scope": "A", "groupCode": "CH", "name": "Cheshire East", "latitude": 53.1566658, "longitude": -2.34321523}, {"scope": "G", "groupCode": "CH01", "name": "Congleton", "latitude": 53.16223, "longitude": -2.28569436}, {"scope": "G", "groupCode": "CH02", "name": "East Cheshire", "latitude": 53.2749367, "longitude": -2.136963}, {"scope": "G", "groupCode": "CH03", "name": "South Cheshire", "latitude": 53.0632133, "longitude": -2.53047824}, {"scope": "A", "groupCode": "CL", "name": "Cornwall", "latitude": 50.4033127, "longitude": -4.83312035}, {"scope": "G", "groupCode": "CL02", "name": "Camel District (Wadebridge)", "latitude": 50.6261063, "longitude": -4.612184}, {"scope": "G", "groupCode": "CL03", "name": "Caradon", "latitude": 50.4397163, "longitude": -4.42620945}, {"scope": "G", "groupCode": "CL04", "name": "Carrick", "latitude": 50.2765961, "longitude": -5.05245733}, {"scope": "G", "groupCode": "CL07", "name": "Restormel", "latitude": 50.34241, "longitude": -4.78397846}, {"scope": "G", "groupCode": "CL08", "name": "West Cornwall (Penwith & Kerrier)", "latitude": 50.1252251, "longitude": -5.37485027}, {"scope": "G", "groupCode": "CL70", "name": "Newquay", "latitude": 50.4187164, "longitude": -4.94416857}, {"scope": "A", "groupCode": "CY", "name": "Clydesdale to Solway", "latitude": 55.2528725, "longitude": -3.73279381}, {"scope": "G", "groupCode": "CY01", "name": "Clyde Valley", "latitude": 55.6731377, "longitude": -3.95456934}, {"scope": "G", "groupCode": "CY02", "name": "Biggar", "latitude": 55.5415878, "longitude": -3.64145017}, {"scope": "G", "groupCode": "CY03", "name": "Dumfries & District", "latitude": 55.0853348, "longitude": -3.904348}, {"scope": "G", "groupCode": "CY04", "name": "Moffat", "latitude": 55.2076263, "longitude": -3.24301767}, {"scope": "S", "groupCode": "CY50", "name": "South Lanarkshire Older Walkers (SLOW)", "latitude": 55.6126671, "longitude": -3.8111515}, {"scope": "A", "groupCode": "DE", "name": "Derbyshire", "latitude": 53.0249863, "longitude": -1.59218991}, {"scope": "G", "groupCode": "DE01", "name": "Amber Valley", "latitude": 53.02926, "longitude": -1.46662211}, {"scope": "G", "groupCode": "DE02", "name": "Derby & S Derbyshire", "latitude": 52.8463478, "longitude": -1.54240954}, {"scope": "G", "groupCode": "DE03", "name": "Erewash District", "latitude": 52.9355, "longitude": -1.34673417}, {"scope": "G", "groupCode": "DE04", "name": "Derbyshire Dales", "latitude": 53.1284637, "longitude": -1.69363689}, {"scope": "A", "groupCode": "DN", "name": "Devon", "latitude": 50.75113, "longitude": -3.8101337}, {"scope": "G", "groupCode": "DN01", "name": "East Devon", "latitude": 50.76434, "longitude": -3.194895}, {"scope": "G", "groupCode": "DN02", "name": "Exeter & District", "latitude": 50.7382126, "longitude": -3.54489636}, {"scope": "G", "groupCode": "DN03", "name": "Moorland", "latitude": 50.6436768, "longitude": -3.875119}, {"scope": "G", "groupCode": "DN05", "name": "North Devon", "latitude": 50.99964, "longitude": -4.108823}, {"scope": "G", "groupCode": "DN07", "name": "Plymouth", "latitude": 50.41476, "longitude": -4.024986}, {"scope": "G", "groupCode": "DN08", "name": "South Devon", "latitude": 50.4886742, "longitude": -3.6152432}, {"scope": "G", "groupCode": "DN09", "name": "South Hams", "latitude": 50.3069649, "longitude": -3.752283}, {"scope": "G", "groupCode": "DN10", "name": "Tavistock", "latitude": 50.67169, "longitude": -4.148409}, {"scope": "G", "groupCode": "DN11", "name": "Tiverton", "latitude": 50.89165, "longitude": -3.627058}, {"scope": "G", "groupCode": "DN13", "name": "Totnes", "latitude": 50.44642, "longitude": -3.770924}, {"scope": "G", "groupCode": "DN16", "name": "Teignmouth & Dawlish", "latitude": 50.5971146, "longitude": -3.54786372}, {"scope": "S", "groupCode": "DN51", "name": "Devon Bootlegs", "latitude": 50.7510948, "longitude": -3.780077}, {"scope": "A", "groupCode": "DT", "name": "Dorset", "latitude": 50.80251, "longitude": -2.30447388}, {"scope": "G", "groupCode": "DT01", "name": "East Dorset", "latitude": 50.76121, "longitude": -2.02313113}, {"scope": "G", "groupCode": "DT02", "name": "South Dorset", "latitude": 50.7254066, "longitude": -2.458202}, {"scope": "G", "groupCode": "DT03", "name": "North Dorset", "latitude": 50.9114571, "longitude": -2.31583047}, {"scope": "G", "groupCode": "DT04", "name": "West Dorset", "latitude": 50.78469, "longitude": -2.752229}, {"scope": "S", "groupCode": "DT50", "name": "Dorset Young Walkers", "latitude": 50.8024139, "longitude": -2.33430886}, {"scope": "S", "groupCode": "DT51", "name": "Dorset 4050 Walkers", "latitude": 50.8024139, "longitude": -2.274309}, {"scope": "A", "groupCode": "ER", "name": "East Yorkshire & Derwent", "latitude": 53.9879837, "longitude": -0.648210168}, {"scope": "G", "groupCode": "ER01", "name": "Beverley", "latitude": 53.8914452, "longitude": -0.468928337}, {"scope": "G", "groupCode": "ER03", "name": "Hull & Holderness", "latitude": 53.83428, "longitude": -0.186214671}, {"scope": "G", "groupCode": "ER04", "name": "Ryedale", "latitude": 54.1769142, "longitude": -0.8089128}, {"scope": "G", "groupCode": "ER05", "name": "Scarborough & District", "latitude": 54.2612953, "longitude": -0.456627637}, {"scope": "G", "groupCode": "ER06", "name": "Pocklington", "latitude": 53.9542465, "longitude": -0.682975054}, {"scope": "G", "groupCode": "ER07", "name": "York", "latitude": 53.997963, "longitude": -1.10304439}, {"scope": "G", "groupCode": "ER09", "name": "Howden & Goole", "latitude": 53.7350349, "longitude": -0.8424968}, {"scope": "S", "groupCode": "ER50", "name": "East Yorks Get Your Boots On", "latitude": 54.0295258, "longitude": -0.6589196}, {"scope": "A", "groupCode": "ES", "name": "Essex", "latitude": 51.76954, "longitude": 0.5443015}, {"scope": "G", "groupCode": "ES01", "name": "Brentwood", "latitude": 51.6386528, "longitude": 0.3107508}, {"scope": "G", "groupCode": "ES02", "name": "Colchester", "latitude": 51.87258, "longitude": 0.8608636}, {"scope": "G", "groupCode": "ES03", "name": "South East Essex", "latitude": 51.53804, "longitude": 0.72870636}, {"scope": "G", "groupCode": "ES04", "name": "Thurrock", "latitude": 51.5059776, "longitude": 0.373119742}, {"scope": "G", "groupCode": "ES05", "name": "West Essex", "latitude": 51.697113, "longitude": 0.162194684}, {"scope": "G", "groupCode": "ES06", "name": "Chelmer & Blackwater", "latitude": 51.72548, "longitude": 0.480853021}, {"scope": "G", "groupCode": "ES07", "name": "North West Essex", "latitude": 51.94194, "longitude": 0.58988595}, {"scope": "G", "groupCode": "ES08", "name": "Havering & East London", "latitude": 51.5520058, "longitude": 0.166189626}, {"scope": "G", "groupCode": "ES09", "name": "Basildon Greenway", "latitude": 51.5901375, "longitude": 0.4662715}, {"scope": "G", "groupCode": "ES10", "name": "Tendring District", "latitude": 51.8714371, "longitude": 1.11504722}, {"scope": "G", "groupCode": "ES11", "name": "Redbridge", "latitude": 51.58566, "longitude": 0.0758633763}, {"scope": "G", "groupCode": "ES12", "name": "Rochford & Castle Point", "latitude": 51.58068, "longitude": 0.7676977}, {"scope": "G", "groupCode": "ES14", "name": "Stort Valley", "latitude": 51.76835, "longitude": 0.108544111}, {"scope": "G", "groupCode": "ES15", "name": "Uttlesford", "latitude": 51.9347, "longitude": 0.279716581}, {"scope": "G", "groupCode": "ES16", "name": "Maldon & Dengie Hundred", "latitude": 51.70972, "longitude": 0.7831381}, {"scope": "S", "groupCode": "ES30", "name": "Essex Friends", "latitude": 51.7456322, "longitude": 0.333190829}, {"scope": "S", "groupCode": "ES31", "name": "East Essex Friends", "latitude": 51.8048859, "longitude": 0.793096066}, {"scope": "S", "groupCode": "ES32", "name": "Lea Valley Friends", "latitude": 51.70235, "longitude": 0.130549431}, {"scope": "S", "groupCode": "ES33", "name": "Newham Ramblers", "latitude": 51.5267868, "longitude": 0.03775572}, {"scope": "S", "groupCode": "ES50", "name": "Hike Essex", "latitude": 51.7695541, "longitude": 0.5744428}, {"scope": "A", "groupCode": "GG", "name": "Greater Gwent", "latitude": 51.7110367, "longitude": -2.97438979}, {"scope": "G", "groupCode": "GG01", "name": "South Gwent", "latitude": 51.57367, "longitude": -2.9618957}, {"scope": "G", "groupCode": "GG02", "name": "Pontypool", "latitude": 51.8066521, "longitude": -2.97691131}, {"scope": "G", "groupCode": "GG03", "name": "North Gwent", "latitude": 51.76675, "longitude": -3.19386029}, {"scope": "G", "groupCode": "GG04", "name": "Lower Wye", "latitude": 51.6899338, "longitude": -2.797511}, {"scope": "G", "groupCode": "GG05", "name": "Gelligaer", "latitude": 51.64912, "longitude": -3.2347374}, {"scope": "G", "groupCode": "GG06", "name": "Islwyn", "latitude": 51.6610146, "longitude": -3.15054584}, {"scope": "A", "groupCode": "GP", "name": "Grampian", "latitude": 57.3001823, "longitude": -2.78313828}, {"scope": "G", "groupCode": "GP01", "name": "Aberdeen", "latitude": 57.2185173, "longitude": -2.63809514}, {"scope": "G", "groupCode": "GP02", "name": "Stonehaven", "latitude": 57.0100975, "longitude": -2.32337427}, {"scope": "G", "groupCode": "GP03", "name": "Inverurie", "latitude": 57.33444, "longitude": -2.577745}, {"scope": "G", "groupCode": "GP04", "name": "Moray", "latitude": 57.47592, "longitude": -3.26717925}, {"scope": "A", "groupCode": "GR", "name": "Gloucestershire", "latitude": 51.8255119, "longitude": -2.126365}, {"scope": "G", "groupCode": "GR01", "name": "Cirencester", "latitude": 51.7285423, "longitude": -1.90026367}, {"scope": "G", "groupCode": "GR02", "name": "Forest of Dean", "latitude": 51.8284569, "longitude": -2.489787}, {"scope": "G", "groupCode": "GR03", "name": "South Cotswold", "latitude": 51.6989136, "longitude": -2.277813}, {"scope": "G", "groupCode": "GR04", "name": "Gloucester", "latitude": 51.8559647, "longitude": -2.25097585}, {"scope": "G", "groupCode": "GR05", "name": "Cleeve", "latitude": 51.9711456, "longitude": -2.036264}, {"scope": "G", "groupCode": "GR07", "name": "North Cotswold", "latitude": 51.9376335, "longitude": -1.7690531}, {"scope": "S", "groupCode": "GR50", "name": "Gloucestershire Walking Group", "latitude": 51.8254852, "longitude": -2.09630156}, {"scope": "A", "groupCode": "HF", "name": "Hertfordshire & North Middlesex", "latitude": 51.80788, "longitude": -0.208949611}, {"scope": "G", "groupCode": "HF01", "name": "West Herts", "latitude": 51.7727928, "longitude": -0.411610454}, {"scope": "G", "groupCode": "HF02", "name": "East Hertfordshire", "latitude": 51.84845, "longitude": -0.003260841}, {"scope": "G", "groupCode": "HF03", "name": "North Hertfordshire", "latitude": 51.92185, "longitude": -0.227866426}, {"scope": "G", "groupCode": "HF04", "name": "North London & South Herts", "latitude": 51.6585655, "longitude": -0.134809881}, {"scope": "G", "groupCode": "HF05", "name": "Royston", "latitude": 52.0105972, "longitude": -0.0301989075}, {"scope": "G", "groupCode": "HF06", "name": "Watford & Three Rivers", "latitude": 51.6691971, "longitude": -0.394182861}, {"scope": "G", "groupCode": "HF07", "name": "Finchley & Hornsey", "latitude": 51.5967941, "longitude": -0.181737721}, {"scope": "S", "groupCode": "HF51", "name": "Herts Weekend Walkers", "latitude": 51.80794, "longitude": -0.17884782}, {"scope": "S", "groupCode": "HF52", "name": "Stag Walkers", "latitude": 51.95571, "longitude": -0.1922716}, {"scope": "A", "groupCode": "HW", "name": "Herefordshire", "latitude": 52.1037, "longitude": -2.74511266}, {"scope": "G", "groupCode": "HW01", "name": "Leadon Vale", "latitude": 52.076, "longitude": -2.45660925}, {"scope": "G", "groupCode": "HW02", "name": "Ross-on-Wye", "latitude": 51.91601, "longitude": -2.61994123}, {"scope": "G", "groupCode": "HW04", "name": "Hereford", "latitude": 52.07496, "longitude": -2.79621935}, {"scope": "G", "groupCode": "HW07", "name": "Mortimer", "latitude": 52.2530632, "longitude": -2.831357}, {"scope": "A", "groupCode": "IL", "name": "Inner London", "latitude": 51.48874, "longitude": -0.08691611}, {"scope": "G", "groupCode": "IL01", "name": "Blackheath", "latitude": 51.463665, "longitude": 0.0243258178}, {"scope": "G", "groupCode": "IL02", "name": "Hampstead", "latitude": 51.54724, "longitude": -0.138300568}, {"scope": "G", "groupCode": "IL03", "name": "South Bank", "latitude": 51.4645157, "longitude": -0.0951467}, {"scope": "G", "groupCode": "IL04", "name": "North East London", "latitude": 51.5315475, "longitude": -0.05129414}, {"scope": "G", "groupCode": "IL05", "name": "Hammersmith & Wandsworth", "latitude": 51.4660759, "longitude": -0.197530136}, {"scope": "G", "groupCode": "IL06", "name": "Kensington, Chelsea & Westminster", "latitude": 51.50904, "longitude": -0.171892345}, {"scope": "G", "groupCode": "IL08", "name": "West London", "latitude": 51.49525, "longitude": -0.34873274}, {"scope": "S", "groupCode": "IL40", "name": "London Strollers", "latitude": 51.47392, "longitude": -0.0871783644}, {"scope": "S", "groupCode": "IL50", "name": "Metropolitan Walkers", "latitude": 51.5039177, "longitude": -0.117178366}, {"scope": "S", "groupCode": "IL51", "name": "Capital Walkers", "latitude": 51.48892, "longitude": -0.0571783669}, {"scope": "A", "groupCode": "IW", "name": "Isle of Wight", "latitude": 50.6759033, "longitude": -1.29617488}, {"scope": "G", "groupCode": "IW01", "name": "Isle of Wight", "latitude": 50.6759644, "longitude": -1.32620275}, {"scope": "S", "groupCode": "IW50", "name": "Wight Sole", "latitude": 50.6759529, "longitude": -1.26614606}, {"scope": "A", "groupCode": "KT", "name": "Kent", "latitude": 51.2451439, "longitude": 0.6900889}, {"scope": "G", "groupCode": "KT01", "name": "Ashford (Kent)", "latitude": 51.2166557, "longitude": 0.812157}, {"scope": "G", "groupCode": "KT02", "name": "Maidstone", "latitude": 51.23501, "longitude": 0.5805862}, {"scope": "G", "groupCode": "KT03", "name": "North West Kent", "latitude": 51.46088, "longitude": 0.142359033}, {"scope": "G", "groupCode": "KT04", "name": "Tonbridge & Malling", "latitude": 51.2736359, "longitude": 0.3579201}, {"scope": "G", "groupCode": "KT05", "name": "Tunbridge Wells", "latitude": 51.11438, "longitude": 0.4306792}, {"scope": "G", "groupCode": "KT06", "name": "Canterbury", "latitude": 51.2838821, "longitude": 1.10162354}, {"scope": "G", "groupCode": "KT07", "name": "Sevenoaks", "latitude": 51.2755051, "longitude": 0.172095165}, {"scope": "G", "groupCode": "KT08", "name": "Medway", "latitude": 51.42575, "longitude": 0.569529831}, {"scope": "G", "groupCode": "KT09", "name": "White Cliffs", "latitude": 51.160038, "longitude": 1.16177952}, {"scope": "G", "groupCode": "KT10", "name": "Bromley", "latitude": 51.3719978, "longitude": 0.0515263}, {"scope": "G", "groupCode": "KT11", "name": "Dartford & Gravesham", "latitude": 51.41622, "longitude": 0.335274339}, {"scope": "S", "groupCode": "KT50", "name": "East Kent Walking", "latitude": 51.20552, "longitude": 0.987300336}, {"scope": "S", "groupCode": "KT51", "name": "West Kent Walking", "latitude": 51.28701, "longitude": 0.375478148}, {"scope": "A", "groupCode": "LB", "name": "Lothian & Borders", "latitude": 55.665596, "longitude": -2.87181139}, {"scope": "G", "groupCode": "LB01", "name": "Edinburgh", "latitude": 55.9338226, "longitude": -3.20447755}, {"scope": "G", "groupCode": "LB02", "name": "Livingston", "latitude": 55.84769, "longitude": -3.55528522}, {"scope": "G", "groupCode": "LB03", "name": "Balerno", "latitude": 55.8817139, "longitude": -3.353959}, {"scope": "G", "groupCode": "LB04", "name": "Linlithgow", "latitude": 55.93696, "longitude": -3.59948039}, {"scope": "G", "groupCode": "LB05", "name": "East Lothian Ramblers and Hillwalkers", "latitude": 55.9424248, "longitude": -2.70935321}, {"scope": "G", "groupCode": "LB07", "name": "Tweeddale", "latitude": 55.6233635, "longitude": -3.2596817}, {"scope": "G", "groupCode": "LB08", "name": "Coldstream", "latitude": 55.7196465, "longitude": -2.360563}, {"scope": "G", "groupCode": "LB11", "name": "South Queensferry", "latitude": 55.9641762, "longitude": -3.36140633}, {"scope": "G", "groupCode": "LB12", "name": "Midlothian Walkers", "latitude": 55.83858, "longitude": -3.10558248}, {"scope": "G", "groupCode": "LB13", "name": "Eildon Ramblers", "latitude": 55.48534, "longitude": -2.81938767}, {"scope": "S", "groupCode": "LB50", "name": "Edinburgh Young Walkers", "latitude": 55.665535, "longitude": -2.84186053}, {"scope": "A", "groupCode": "LD", "name": "Lake District", "latitude": 54.5347481, "longitude": -2.89533472}, {"scope": "G", "groupCode": "LD01", "name": "Furness", "latitude": 54.3383636, "longitude": -3.262637}, {"scope": "G", "groupCode": "LD02", "name": "Grange over Sands", "latitude": 54.1972351, "longitude": -2.93561578}, {"scope": "G", "groupCode": "LD03", "name": "Kendal", "latitude": 54.3499031, "longitude": -2.79661226}, {"scope": "G", "groupCode": "LD04", "name": "Lancaster", "latitude": 54.13667, "longitude": -2.64058566}, {"scope": "G", "groupCode": "LD05", "name": "Penrith", "latitude": 54.6129265, "longitude": -2.62212634}, {"scope": "G", "groupCode": "LD07", "name": "Carlisle", "latitude": 54.82709, "longitude": -3.05189252}, {"scope": "S", "groupCode": "LD50", "name": "Summit Good", "latitude": 54.5348, "longitude": -2.86525822}, {"scope": "A", "groupCode": "LE", "name": "Leicestershire & Rutland", "latitude": 52.6657448, "longitude": -1.04321194}, {"scope": "G", "groupCode": "LE01", "name": "Hinckley", "latitude": 52.616497, "longitude": -1.39102745}, {"scope": "G", "groupCode": "LE02", "name": "Leicester & District", "latitude": 52.5945778, "longitude": -1.17846489}, {"scope": "G", "groupCode": "LE03", "name": "Melton Mowbray", "latitude": 52.7964554, "longitude": -0.8561478}, {"scope": "G", "groupCode": "LE04", "name": "Coalville", "latitude": 52.75315, "longitude": -1.40500867}, {"scope": "G", "groupCode": "LE05", "name": "Rutland", "latitude": 52.66075, "longitude": -0.6546493}, {"scope": "G", "groupCode": "LE06", "name": "Loughborough & District", "latitude": 52.7370148, "longitude": -1.14617217}, {"scope": "G", "groupCode": "LE07", "name": "Lutterworth", "latitude": 52.53933, "longitude": -1.00788987}, {"scope": "S", "groupCode": "LE50", "name": "Leicestershire & Rutland Walking", "latitude": 52.6658, "longitude": -1.0131619}, {"scope": "A", "groupCode": "LI", "name": "Lincolnshire", "latitude": 53.1843872, "longitude": -0.278598219}, {"scope": "G", "groupCode": "LI01", "name": "Boston", "latitude": 52.9741554, "longitude": -0.0222658347}, {"scope": "G", "groupCode": "LI02", "name": "Gainsborough", "latitude": 53.3928261, "longitude": -0.476968437}, {"scope": "G", "groupCode": "LI03", "name": "Grantham", "latitude": 52.91241, "longitude": -0.5765518}, {"scope": "G", "groupCode": "LI04", "name": "Grimsby & Louth", "latitude": 53.4260559, "longitude": -0.0236056037}, {"scope": "G", "groupCode": "LI06", "name": "Lincoln", "latitude": 53.2247276, "longitude": -0.5549436}, {"scope": "G", "groupCode": "LI07", "name": "Scunthorpe", "latitude": 53.5939178, "longitude": -0.592511535}, {"scope": "G", "groupCode": "LI08", "name": "Sleaford", "latitude": 53.08118, "longitude": -0.446157724}, {"scope": "G", "groupCode": "LI09", "name": "Stamford", "latitude": 52.754, "longitude": -0.396493971}, {"scope": "G", "groupCode": "LI10", "name": "Spalding", "latitude": 52.7975731, "longitude": -0.0321888253}, {"scope": "S", "groupCode": "LI50", "name": "Lincolnshire Walking", "latitude": 53.1843452, "longitude": -0.248563632}, {"scope": "A", "groupCode": "LL", "name": "Merseyside and West Cheshire", "latitude": 53.33437, "longitude": -2.91055965}, {"scope": "G", "groupCode": "LL01", "name": "Cestrian (Chester)", "latitude": 53.1726646, "longitude": -2.843698}, {"scope": "G", "groupCode": "LL02", "name": "Liverpool", "latitude": 53.4071426, "longitude": -2.88441539}, {"scope": "G", "groupCode": "LL03", "name": "Wirral", "latitude": 53.3693275, "longitude": -3.09241772}, {"scope": "G", "groupCode": "LL04", "name": "Southport", "latitude": 53.5653076, "longitude": -3.01620317}, {"scope": "G", "groupCode": "LL05", "name": "St Helens", "latitude": 53.4594841, "longitude": -2.72363544}, {"scope": "S", "groupCode": "LL50", "name": "Merseyside 20s-30s Walkers", "latitude": 53.3384247, "longitude": -2.87386751}, {"scope": "A", "groupCode": "LN", "name": "North East Lancashire", "latitude": 53.8324776, "longitude": -2.36719775}, {"scope": "G", "groupCode": "LN01", "name": "Blackburn & Darwen", "latitude": 53.6926422, "longitude": -2.46758223}, {"scope": "G", "groupCode": "LN02", "name": "Clitheroe", "latitude": 53.9072838, "longitude": -2.44469213}, {"scope": "G", "groupCode": "LN03", "name": "Hyndburn", "latitude": 53.75865, "longitude": -2.38979125}, {"scope": "G", "groupCode": "LN04", "name": "Rossendale", "latitude": 53.6938171, "longitude": -2.26730633}, {"scope": "G", "groupCode": "LN05", "name": "Burnley & Pendle", "latitude": 53.8313332, "longitude": -2.19953823}, {"scope": "A", "groupCode": "LW", "name": "North Wales", "latitude": 53.0445747, "longitude": -3.77818966}, {"scope": "G", "groupCode": "LW01", "name": "Clwydian", "latitude": 53.13947, "longitude": -3.1776402}, {"scope": "G", "groupCode": "LW02", "name": "Conwy Valley", "latitude": 53.1409645, "longitude": -3.73647475}, {"scope": "G", "groupCode": "LW03", "name": "Ynys Mon", "latitude": 53.28573, "longitude": -4.374405}, {"scope": "G", "groupCode": "LW04", "name": "Wrexham", "latitude": 52.9902649, "longitude": -3.01770353}, {"scope": "G", "groupCode": "LW06", "name": "Meirionnydd", "latitude": 52.80985, "longitude": -3.85206175}, {"scope": "G", "groupCode": "LW07", "name": "Berwyn", "latitude": 52.9604034, "longitude": -3.32722425}, {"scope": "G", "groupCode": "LW08", "name": "Vale of Clwyd", "latitude": 53.1532326, "longitude": -3.375421}, {"scope": "G", "groupCode": "LW09", "name": "Deeside", "latitude": 53.25938, "longitude": -3.183413}, {"scope": "G", "groupCode": "LW10", "name": "Eryri", "latitude": 52.99761, "longitude": -4.29779768}, {"scope": "A", "groupCode": "MC", "name": "North and Mid Cheshire", "latitude": 53.30113, "longitude": -2.54827428}, {"scope": "G", "groupCode": "MC01", "name": "Halton", "latitude": 53.3437462, "longitude": -2.71880651}, {"scope": "G", "groupCode": "MC02", "name": "Vale Royal and Knutsford", "latitude": 53.2626266, "longitude": -2.515829}, {"scope": "G", "groupCode": "MC03", "name": "Warrington", "latitude": 53.39882, "longitude": -2.56361032}, {"scope": "S", "groupCode": "MC50", "name": "Cheshire Walkers", "latitude": 53.3012657, "longitude": -2.51885033}, {"scope": "A", "groupCode": "ML", "name": "Mid Lancashire", "latitude": 53.7462044, "longitude": -2.8187685}, {"scope": "G", "groupCode": "ML01", "name": "Chorley", "latitude": 53.6614838, "longitude": -2.64785957}, {"scope": "G", "groupCode": "ML02", "name": "Fylde", "latitude": 53.83051, "longitude": -2.95660472}, {"scope": "G", "groupCode": "ML03", "name": "Garstang & District", "latitude": 53.9024734, "longitude": -2.77908945}, {"scope": "G", "groupCode": "ML04", "name": "Preston", "latitude": 53.8118134, "longitude": -2.69762754}, {"scope": "G", "groupCode": "ML05", "name": "South Ribble", "latitude": 53.7281227, "longitude": -2.71021581}, {"scope": "G", "groupCode": "ML06", "name": "West Lancashire", "latitude": 53.6096344, "longitude": -2.882592}, {"scope": "S", "groupCode": "ML50", "name": "Hike On Lancashire", "latitude": 53.74616, "longitude": -2.848759}, {"scope": "S", "groupCode": "ML51", "name": "Lancashire Weekend Walkers", "latitude": 53.74616, "longitude": -2.788759}, {"scope": "A", "groupCode": "MR", "name": "Greater Manchester & High Peak", "latitude": 53.4731827, "longitude": -2.16267967}, {"scope": "G", "groupCode": "MR01", "name": "Bolton", "latitude": 53.5786362, "longitude": -2.466973}, {"scope": "G", "groupCode": "MR02", "name": "Bury", "latitude": 53.5878639, "longitude": -2.31255364}, {"scope": "G", "groupCode": "MR03", "name": "Rochdale", "latitude": 53.6165733, "longitude": -2.1578126}, {"scope": "G", "groupCode": "MR04", "name": "New Mills", "latitude": 53.37307, "longitude": -1.87389839}, {"scope": "G", "groupCode": "MR05", "name": "Oldham", "latitude": 53.5518875, "longitude": -2.050636}, {"scope": "G", "groupCode": "MR06", "name": "Stockport", "latitude": 53.3939629, "longitude": -2.12810636}, {"scope": "G", "groupCode": "MR07", "name": "Wigan & District", "latitude": 53.5241547, "longitude": -2.589567}, {"scope": "G", "groupCode": "MR10", "name": "Manchester and Salford Ramblers", "latitude": 53.4689, "longitude": -2.29537249}, {"scope": "G", "groupCode": "MR11", "name": "Trafford", "latitude": 53.419014, "longitude": -2.35534358}, {"scope": "G", "groupCode": "MR12", "name": "Tameside Ramblers", "latitude": 53.4774742, "longitude": -2.06280541}, {"scope": "S", "groupCode": "MR40", "name": "Manchester Weekend Walkers", "latitude": 53.45821, "longitude": -2.1627655}, {"scope": "S", "groupCode": "MR50", "name": "Mad Walkers (Manchester & District)", "latitude": 53.4882126, "longitude": -2.19276547}, {"scope": "S", "groupCode": "MR70", "name": "Manchester Coach Rambles", "latitude": 53.47321, "longitude": -2.13276553}, {"scope": "A", "groupCode": "MW", "name": "Powys", "latitude": 52.32564, "longitude": -3.40976381}, {"scope": "G", "groupCode": "MW02", "name": "East Radnor", "latitude": 52.317627, "longitude": -3.16546774}, {"scope": "G", "groupCode": "MW05", "name": "Welshpool", "latitude": 52.6448364, "longitude": -3.40338731}, {"scope": "A", "groupCode": "NE", "name": "Nottinghamshire", "latitude": 53.12778, "longitude": -1.01231956}, {"scope": "G", "groupCode": "NE01", "name": "Newark", "latitude": 53.0691643, "longitude": -0.7834623}, {"scope": "G", "groupCode": "NE02", "name": "Nottingham", "latitude": 52.95342, "longitude": -1.16194987}, {"scope": "G", "groupCode": "NE03", "name": "Retford", "latitude": 53.3445129, "longitude": -0.916640162}, {"scope": "G", "groupCode": "NE04", "name": "Ravenshead and Hucknall", "latitude": 53.0599976, "longitude": -1.2031796}, {"scope": "G", "groupCode": "NE05", "name": "Worksop", "latitude": 53.2882347, "longitude": -1.10770428}, {"scope": "G", "groupCode": "NE07", "name": "Rushcliffe", "latitude": 52.8704758, "longitude": -1.13162112}, {"scope": "G", "groupCode": "NE08", "name": "Broxtowe", "latitude": 52.98909, "longitude": -1.2693069}, {"scope": "G", "groupCode": "NE09", "name": "Gedling", "latitude": 53.1336021, "longitude": -0.9724003}, {"scope": "G", "groupCode": "NE10", "name": "Mansfield & Sherwood Walking Group", "latitude": 53.1450043, "longitude": -1.20636284}, {"scope": "G", "groupCode": "NE11", "name": "Southwell", "latitude": 53.0437355, "longitude": -0.918001}, {"scope": "G", "groupCode": "NE14", "name": "Collingham", "latitude": 53.13659, "longitude": -0.7525646}, {"scope": "G", "groupCode": "NE15", "name": "Vale of Belvoir", "latitude": 52.92862, "longitude": -0.940504849}, {"scope": "S", "groupCode": "NE50", "name": "Notts Derby Walking", "latitude": 53.1053, "longitude": -1.02818429}, {"scope": "S", "groupCode": "NE51", "name": "One Step Walkers", "latitude": 53.1353, "longitude": -1.05818427}, {"scope": "A", "groupCode": "NN", "name": "Northumbria", "latitude": 55.1795654, "longitude": -1.98834074}, {"scope": "G", "groupCode": "NN01", "name": "Tyneside", "latitude": 55.01637, "longitude": -1.597983}, {"scope": "G", "groupCode": "NN02", "name": "Chester le Street", "latitude": 54.85644, "longitude": -1.59114265}, {"scope": "G", "groupCode": "NN03", "name": "Sunderland", "latitude": 54.877533, "longitude": -1.44480157}, {"scope": "G", "groupCode": "NN04", "name": "Gateshead", "latitude": 54.94432, "longitude": -1.60698414}, {"scope": "G", "groupCode": "NN05", "name": "Hexham", "latitude": 55.059494, "longitude": -2.2831614}, {"scope": "G", "groupCode": "NN06", "name": "Ponteland", "latitude": 55.0634232, "longitude": -1.8591609}, {"scope": "G", "groupCode": "NN10", "name": "Berwick", "latitude": 55.5926361, "longitude": -1.99353969}, {"scope": "G", "groupCode": "NN11", "name": "Alnwick", "latitude": 55.355072, "longitude": -1.91940248}, {"scope": "G", "groupCode": "NN12", "name": "Derwentside", "latitude": 54.8293266, "longitude": -1.80682957}, {"scope": "G", "groupCode": "NN13", "name": "Morpeth", "latitude": 55.17642, "longitude": -1.6885283}, {"scope": "G", "groupCode": "NN14", "name": "Durham City", "latitude": 54.7662849, "longitude": -1.56706142}, {"scope": "S", "groupCode": "NN30", "name": "Northumbria Short Circuits", "latitude": 55.1520157, "longitude": -1.99820125}, {"scope": "S", "groupCode": "NN50", "name": "Northumbria Walking", "latitude": 55.1995773, "longitude": -2.02300882}, {"scope": "S", "groupCode": "NN70", "name": "Northumbria Family Walking", "latitude": 55.1845779, "longitude": -1.96300888}, {"scope": "A", "groupCode": "NP", "name": "Northamptonshire", "latitude": 52.307663, "longitude": -0.8647299}, {"scope": "G", "groupCode": "NP01", "name": "Northampton", "latitude": 52.1360664, "longitude": -1.02501416}, {"scope": "G", "groupCode": "NP02", "name": "Daventry", "latitude": 52.31605, "longitude": -1.04804516}, {"scope": "G", "groupCode": "NP03", "name": "Wellingborough", "latitude": 52.30346, "longitude": -0.653012335}, {"scope": "G", "groupCode": "NP05", "name": "Kettering", "latitude": 52.4709778, "longitude": -0.615839}, {"scope": "S", "groupCode": "NP50", "name": "Northants 20s - 40s Ramblers", "latitude": 52.3076324, "longitude": -0.8347705}, {"scope": "A", "groupCode": "NR", "name": "Norfolk", "latitude": 52.6754341, "longitude": 0.9456274}, {"scope": "G", "groupCode": "NR01", "name": "King's Lynn", "latitude": 52.7271233, "longitude": 0.471036077}, {"scope": "G", "groupCode": "NR02", "name": "Norwich", "latitude": 52.6318321, "longitude": 1.28278673}, {"scope": "G", "groupCode": "NR03", "name": "Sheringham & District", "latitude": 52.8388252, "longitude": 1.29135966}, {"scope": "G", "groupCode": "NR04", "name": "Southern Norfolk", "latitude": 52.514576, "longitude": 1.275965}, {"scope": "G", "groupCode": "NR06", "name": "Great Yarmouth", "latitude": 52.64069, "longitude": 1.66129518}, {"scope": "G", "groupCode": "NR07", "name": "Wensum", "latitude": 52.70119, "longitude": 1.31020141}, {"scope": "G", "groupCode": "NR08", "name": "Mid-Norfolk", "latitude": 52.58813, "longitude": 0.837282062}, {"scope": "G", "groupCode": "NR09", "name": "Fakenham", "latitude": 52.8793335, "longitude": 0.8634545}, {"scope": "S", "groupCode": "NR50", "name": "Hike Norfolk", "latitude": 52.675396, "longitude": 0.9756488}, {"scope": "A", "groupCode": "NS", "name": "Staffordshire", "latitude": 52.82163, "longitude": -2.037753}, {"scope": "G", "groupCode": "NS01", "name": "East Staffordshire", "latitude": 52.8633461, "longitude": -1.8122822}, {"scope": "G", "groupCode": "NS02", "name": "Stone", "latitude": 52.90015, "longitude": -2.18901348}, {"scope": "G", "groupCode": "NS03", "name": "Stoke/Newcastle", "latitude": 53.0008125, "longitude": -2.271402}, {"scope": "G", "groupCode": "NS04", "name": "Lichfield", "latitude": 52.68294, "longitude": -1.7941519}, {"scope": "G", "groupCode": "NS05", "name": "Mid Staffordshire", "latitude": 52.80561, "longitude": -2.166239}, {"scope": "G", "groupCode": "NS06", "name": "Stourbridge", "latitude": 52.47977, "longitude": -2.16922712}, {"scope": "G", "groupCode": "NS07", "name": "Wolverhampton", "latitude": 52.5878868, "longitude": -2.18306518}, {"scope": "G", "groupCode": "NS08", "name": "Walsall", "latitude": 52.599617, "longitude": -1.96031189}, {"scope": "G", "groupCode": "NS09", "name": "Sandwell", "latitude": 52.514595, "longitude": -2.00363255}, {"scope": "G", "groupCode": "NS10", "name": "Chase & District", "latitude": 52.7028465, "longitude": -1.9633168}, {"scope": "G", "groupCode": "NS11", "name": "Leek", "latitude": 53.07093, "longitude": -1.950916}, {"scope": "G", "groupCode": "NS12", "name": "Biddulph", "latitude": 53.1166878, "longitude": -2.11508822}, {"scope": "S", "groupCode": "NS50", "name": "Black Country Young Walkers", "latitude": 52.82154, "longitude": -2.06778336}, {"scope": "S", "groupCode": "NS51", "name": "Staffordshire Walkers", "latitude": 52.82154, "longitude": -2.00778341}, {"scope": "G", "groupCode": "NS97", "name": "Staffordshire Awaiting Allocation NS97", "latitude": 52.6957, "longitude": -2.14025116}, {"scope": "A", "groupCode": "NY", "name": "North Yorks & South Durham", "latitude": 54.48157, "longitude": -1.56550431}, {"scope": "G", "groupCode": "NY01", "name": "Barnard Castle", "latitude": 54.5951347, "longitude": -2.00114965}, {"scope": "G", "groupCode": "NY02", "name": "Cleveland", "latitude": 54.4920273, "longitude": -1.03489363}, {"scope": "G", "groupCode": "NY03", "name": "Crook & Weardale", "latitude": 54.74134, "longitude": -1.99032068}, {"scope": "G", "groupCode": "NY04", "name": "Darlington", "latitude": 54.6058, "longitude": -1.53233993}, {"scope": "G", "groupCode": "NY06", "name": "Northallerton", "latitude": 54.3349724, "longitude": -1.38208807}, {"scope": "G", "groupCode": "NY07", "name": "Richmondshire", "latitude": 54.361515, "longitude": -1.93405151}, {"scope": "S", "groupCode": "NY50", "name": "Darlington Dales and Hills", "latitude": 54.47724, "longitude": -1.52907932}, {"scope": "A", "groupCode": "OX", "name": "Oxfordshire", "latitude": 51.76577, "longitude": -1.32239926}, {"scope": "G", "groupCode": "OX01", "name": "Banbury & North Oxfordshire", "latitude": 52.04851, "longitude": -1.38669872}, {"scope": "G", "groupCode": "OX02", "name": "Oxford", "latitude": 51.7545929, "longitude": -1.24097657}, {"scope": "G", "groupCode": "OX04", "name": "Vale of White Horse", "latitude": 51.6342354, "longitude": -1.44160581}, {"scope": "G", "groupCode": "OX05", "name": "West Oxfordshire", "latitude": 51.83766, "longitude": -1.50686216}, {"scope": "G", "groupCode": "OX06", "name": "Bicester & Kidlington", "latitude": 51.8972969, "longitude": -1.16965568}, {"scope": "G", "groupCode": "OX07", "name": "Didcot & Wallingford", "latitude": 51.6102448, "longitude": -1.15490317}, {"scope": "G", "groupCode": "OX08", "name": "Henley & Goring", "latitude": 51.5635834, "longitude": -1.02457249}, {"scope": "G", "groupCode": "OX09", "name": "Thame & Wheatley", "latitude": 51.7055855, "longitude": -1.0509479}, {"scope": "S", "groupCode": "OX40", "name": "Oxon Weekend Walkers", "latitude": 51.76562, "longitude": -1.35253465}, {"scope": "S", "groupCode": "OX50", "name": "Oxon 20s & 30s Walkers", "latitude": 51.76562, "longitude": -1.29253459}, {"scope": "S", "groupCode": "OX70", "name": "Blitz and Klean", "latitude": 51.89648, "longitude": -1.20849276}, {"scope": "A", "groupCode": "PE", "name": "Pembrokeshire", "latitude": 51.85399, "longitude": -4.88655567}, {"scope": "G", "groupCode": "PE01", "name": "Pembrokeshire", "latitude": 51.8537979, "longitude": -4.85709047}, {"scope": "A", "groupCode": "RB", "name": "Renfrewshire, Cowal & Bute", "latitude": 55.95421, "longitude": -4.87066269}, {"scope": "G", "groupCode": "RB01", "name": "Paisley", "latitude": 55.84782, "longitude": -4.542747}, {"scope": "G", "groupCode": "RB02", "name": "Eastwood", "latitude": 55.7531433, "longitude": -4.359578}, {"scope": "G", "groupCode": "RB03", "name": "Inverclyde", "latitude": 56.0187721, "longitude": -4.990543}, {"scope": "G", "groupCode": "RB04", "name": "Isle of Bute", "latitude": 55.82918, "longitude": -5.100029}, {"scope": "A", "groupCode": "SC", "name": "Highland & Islands", "latitude": 57.71226, "longitude": -4.785042}, {"scope": "G", "groupCode": "SC01", "name": "Badenoch & Strathspey", "latitude": 57.10971, "longitude": -3.97708321}, {"scope": "G", "groupCode": "SC02", "name": "Lochaber & Lorn", "latitude": 56.68632, "longitude": -5.39599466}, {"scope": "G", "groupCode": "SC06", "name": "Inverness", "latitude": 58.05514, "longitude": -4.68500233}, {"scope": "A", "groupCode": "SD", "name": "South Yorks & N.E.Derbyshire", "latitude": 53.4217567, "longitude": -1.34493124}, {"scope": "G", "groupCode": "SD01", "name": "Chesterfield & North East Derbyshire", "latitude": 53.2266426, "longitude": -1.38748455}, {"scope": "G", "groupCode": "SD02", "name": "Doncaster", "latitude": 53.5443459, "longitude": -1.09569085}, {"scope": "G", "groupCode": "SD03", "name": "Sheffield", "latitude": 53.4044266, "longitude": -1.58050168}, {"scope": "G", "groupCode": "SD04", "name": "Rotherham Metro Ramblers", "latitude": 53.45319, "longitude": -1.34891665}, {"scope": "G", "groupCode": "SD05", "name": "Barnsley & Penistone", "latitude": 53.5358276, "longitude": -1.53251791}, {"scope": "G", "groupCode": "SD07", "name": "Dearne Valley", "latitude": 53.3834038, "longitude": -1.24762249}, {"scope": "S", "groupCode": "SD50", "name": "Sheffield 20s & 30s", "latitude": 53.4043, "longitude": -1.52061784}, {"scope": "S", "groupCode": "SD51", "name": "Chesterfield 20s & 30s", "latitude": 53.25627, "longitude": -1.40139544}, {"scope": "S", "groupCode": "SD52", "name": "Sheffield 40s", "latitude": 53.4043, "longitude": -1.55061781}, {"scope": "A", "groupCode": "SK", "name": "Suffolk", "latitude": 52.2189369, "longitude": 1.06292522}, {"scope": "G", "groupCode": "SK01", "name": "Bury St Edmunds", "latitude": 52.3141251, "longitude": 0.669224143}, {"scope": "G", "groupCode": "SK02", "name": "Ipswich & District", "latitude": 52.0443726, "longitude": 1.19621956}, {"scope": "G", "groupCode": "SK03", "name": "Newmarket & District", "latitude": 52.22187, "longitude": 0.4852927}, {"scope": "G", "groupCode": "SK04", "name": "Stowmarket", "latitude": 52.2317772, "longitude": 1.02956152}, {"scope": "G", "groupCode": "SK05", "name": "Sudbury", "latitude": 52.0817032, "longitude": 0.7849632}, {"scope": "G", "groupCode": "SK06", "name": "Waveney", "latitude": 52.4008636, "longitude": 1.516532}, {"scope": "G", "groupCode": "SK07", "name": "Alde Valley", "latitude": 52.1964836, "longitude": 1.49442863}, {"scope": "S", "groupCode": "SK50", "name": "Stour Walking", "latitude": 52.21894, "longitude": 1.09295654}, {"scope": "S", "groupCode": "SK70", "name": "Alde Valley Working Party", "latitude": 52.1968269, "longitude": 1.46483636}, {"scope": "A", "groupCode": "SL", "name": "North Strathclyde", "latitude": 55.890564, "longitude": -5.257517}, {"scope": "G", "groupCode": "SL01", "name": "Glasgow", "latitude": 55.8578949, "longitude": -4.25304461}, {"scope": "G", "groupCode": "SL02", "name": "Monklands", "latitude": 55.8419876, "longitude": -3.91229749}, {"scope": "G", "groupCode": "SL03", "name": "Cumbernauld & Kilsyth", "latitude": 55.97357, "longitude": -4.0221467}, {"scope": "G", "groupCode": "SL04", "name": "Bearsden & Milngavie", "latitude": 55.94125, "longitude": -4.34445238}, {"scope": "G", "groupCode": "SL05", "name": "Strathkelvin", "latitude": 55.95071, "longitude": -4.180213}, {"scope": "G", "groupCode": "SL06", "name": "Helensburgh & West Dunbartonshire", "latitude": 56.0876465, "longitude": -4.675261}, {"scope": "G", "groupCode": "SL07", "name": "Mid Argyll & Kintyre", "latitude": 55.8475075, "longitude": -5.72518349}, {"scope": "S", "groupCode": "SL50", "name": "Glasgow Young Walkers", "latitude": 55.8904381, "longitude": -5.226739}, {"scope": "A", "groupCode": "SO", "name": "Somerset", "latitude": 51.1110039, "longitude": -2.934112}, {"scope": "G", "groupCode": "SO01", "name": "Mendip", "latitude": 51.20289, "longitude": -2.544543}, {"scope": "G", "groupCode": "SO02", "name": "Sedgemoor", "latitude": 51.1847725, "longitude": -2.95255351}, {"scope": "G", "groupCode": "SO03", "name": "South Somerset", "latitude": 50.98811, "longitude": -2.709533}, {"scope": "G", "groupCode": "SO04", "name": "West Somerset", "latitude": 51.13375, "longitude": -3.49042153}, {"scope": "G", "groupCode": "SO05", "name": "Taunton Deane", "latitude": 51.0105133, "longitude": -3.1572268}, {"scope": "G", "groupCode": "SO06", "name": "Woodspring", "latitude": 51.34697, "longitude": -2.858723}, {"scope": "A", "groupCode": "SR", "name": "Surrey", "latitude": 51.26716, "longitude": -0.3899978}, {"scope": "G", "groupCode": "SR01", "name": "Croydon", "latitude": 51.3553352, "longitude": -0.08715701}, {"scope": "G", "groupCode": "SR02", "name": "East Surrey Walkers", "latitude": 51.22485, "longitude": -0.048368264}, {"scope": "G", "groupCode": "SR03", "name": "Farnham & District", "latitude": 51.18831, "longitude": -0.7765084}, {"scope": "G", "groupCode": "SR04", "name": "Godalming & Haslemere", "latitude": 51.1379776, "longitude": -0.588566542}, {"scope": "G", "groupCode": "SR05", "name": "Kingston", "latitude": 51.37243, "longitude": -0.343465835}, {"scope": "G", "groupCode": "SR06", "name": "Mole Valley", "latitude": 51.21232, "longitude": -0.325117022}, {"scope": "G", "groupCode": "SR07", "name": "Richmond", "latitude": 51.44275, "longitude": -0.312349677}, {"scope": "G", "groupCode": "SR08", "name": "Woking", "latitude": 51.3138771, "longitude": -0.560760736}, {"scope": "G", "groupCode": "SR10", "name": "Epsom & Ewell", "latitude": 51.3391724, "longitude": -0.2614461}, {"scope": "G", "groupCode": "SR11", "name": "Guildford", "latitude": 51.2477837, "longitude": -0.5616375}, {"scope": "G", "groupCode": "SR12", "name": "Reigate", "latitude": 51.2579231, "longitude": -0.194938555}, {"scope": "G", "groupCode": "SR13", "name": "Staines", "latitude": 51.40608, "longitude": -0.512283146}, {"scope": "G", "groupCode": "SR14", "name": "Sutton/Wandle Valley", "latitude": 51.3702049, "longitude": -0.178863972}, {"scope": "G", "groupCode": "SR15", "name": "Surrey Heath", "latitude": 51.342926, "longitude": -0.67052424}, {"scope": "S", "groupCode": "SR50", "name": "Surrey Young Walkers", "latitude": 51.2822571, "longitude": -0.4199257}, {"scope": "S", "groupCode": "SR51", "name": "Surrey and Beyond Ramblers (SABRE)", "latitude": 51.2672577, "longitude": -0.3599257}, {"scope": "A", "groupCode": "SS", "name": "Shropshire", "latitude": 52.6434021, "longitude": -2.71359015}, {"scope": "G", "groupCode": "SS02", "name": "Telford & East Shropshire", "latitude": 52.60262, "longitude": -2.45171}, {"scope": "G", "groupCode": "SS03", "name": "Market Drayton", "latitude": 52.8897057, "longitude": -2.58715177}, {"scope": "G", "groupCode": "SS04", "name": "The Oswestry Group", "latitude": 52.8583679, "longitude": -2.98590565}, {"scope": "G", "groupCode": "SS05", "name": "South Shropshire", "latitude": 52.46339, "longitude": -2.85643935}, {"scope": "G", "groupCode": "SS06", "name": "Shrewsbury", "latitude": 52.6993523, "longitude": -2.78715849}, {"scope": "S", "groupCode": "SS50", "name": "Shropshire Young Ramblers", "latitude": 52.643425, "longitude": -2.68365812}, {"scope": "A", "groupCode": "SW", "name": "Glamorgan", "latitude": 51.6062, "longitude": -3.61594915}, {"scope": "G", "groupCode": "SW01", "name": "Cardiff", "latitude": 51.5084267, "longitude": -3.19954348}, {"scope": "G", "groupCode": "SW02", "name": "Neath Port Talbot", "latitude": 51.6797676, "longitude": -3.74340367}, {"scope": "G", "groupCode": "SW03", "name": "Bridgend & District", "latitude": 51.5461044, "longitude": -3.59040141}, {"scope": "G", "groupCode": "SW05", "name": "Vale of Glamorgan", "latitude": 51.444973, "longitude": -3.433075}, {"scope": "G", "groupCode": "SW06", "name": "Swansea", "latitude": 51.6416054, "longitude": -4.061196}, {"scope": "G", "groupCode": "SW07", "name": "Cynon Valley", "latitude": 51.69902, "longitude": -3.46800566}, {"scope": "G", "groupCode": "SW08", "name": "Maesteg", "latitude": 51.59601, "longitude": -3.64180446}, {"scope": "G", "groupCode": "SW09", "name": "Merthyr Valley", "latitude": 51.74098, "longitude": -3.36111641}, {"scope": "G", "groupCode": "SW11", "name": "Penarth & District", "latitude": 51.4442825, "longitude": -3.32746267}, {"scope": "G", "groupCode": "SW12", "name": "Taff Ely", "latitude": 51.5671043, "longitude": -3.35027766}, {"scope": "S", "groupCode": "SW50", "name": "Tiger Bay Ramblers", "latitude": 51.5720444, "longitude": -3.38108253}, {"scope": "S", "groupCode": "SW51", "name": "Tawe Trekkers", "latitude": 51.6374435, "longitude": -3.82939816}, {"scope": "A", "groupCode": "SX", "name": "Sussex", "latitude": 50.94684, "longitude": -0.139912337}, {"scope": "G", "groupCode": "SX01", "name": "Arun-Adur", "latitude": 50.84015, "longitude": -0.5097869}, {"scope": "G", "groupCode": "SX02", "name": "Brighton & Hove", "latitude": 50.86464, "longitude": -0.0574448556}, {"scope": "G", "groupCode": "SX03", "name": "Heathfield & District", "latitude": 51.008564, "longitude": 0.329331934}, {"scope": "G", "groupCode": "SX04", "name": "Mid Sussex", "latitude": 51.0083961, "longitude": -0.117212787}, {"scope": "G", "groupCode": "SX05", "name": "Crawley & North Sussex", "latitude": 51.0444374, "longitude": -0.35513106}, {"scope": "G", "groupCode": "SX06", "name": "South West Sussex", "latitude": 50.9260559, "longitude": -0.6913015}, {"scope": "G", "groupCode": "SX07", "name": "Beachy Head", "latitude": 50.85481, "longitude": 0.201544553}, {"scope": "G", "groupCode": "SX08", "name": "Rother", "latitude": 50.9303665, "longitude": 0.5689695}, {"scope": "G", "groupCode": "SX09", "name": "High Weald Walkers", "latitude": 51.0521736, "longitude": 0.127232164}, {"scope": "S", "groupCode": "SX50", "name": "Sussex Young Walkers", "latitude": 50.9468346, "longitude": -0.109896652}, {"scope": "A", "groupCode": "WE", "name": "Wiltshire & Swindon", "latitude": 51.3157921, "longitude": -1.93148971}, {"scope": "G", "groupCode": "WE01", "name": "North West Wiltshire", "latitude": 51.5094566, "longitude": -2.09546041}, {"scope": "G", "groupCode": "WE02", "name": "Mid Wiltshire", "latitude": 51.333622, "longitude": -1.94550979}, {"scope": "G", "groupCode": "WE03", "name": "South Wiltshire", "latitude": 51.0908852, "longitude": -1.92023885}, {"scope": "G", "groupCode": "WE04", "name": "Swindon & North East Wiltshire", "latitude": 51.47376, "longitude": -1.73218262}, {"scope": "G", "groupCode": "WE05", "name": "West Wiltshire", "latitude": 51.2547073, "longitude": -2.15305638}, {"scope": "A", "groupCode": "WK", "name": "Warwickshire", "latitude": 52.3331, "longitude": -1.60340965}, {"scope": "G", "groupCode": "WK01", "name": "City of Birmingham", "latitude": 52.4732246, "longitude": -1.87740517}, {"scope": "G", "groupCode": "WK02", "name": "Coventry", "latitude": 52.40602, "longitude": -1.50395048}, {"scope": "G", "groupCode": "WK03", "name": "Mid Warwickshire", "latitude": 52.3100052, "longitude": -1.58468342}, {"scope": "G", "groupCode": "WK04", "name": "Rugby", "latitude": 52.3844376, "longitude": -1.32834506}, {"scope": "G", "groupCode": "WK05", "name": "Stratford upon Avon", "latitude": 52.1716881, "longitude": -1.73278832}, {"scope": "G", "groupCode": "WK06", "name": "Southam", "latitude": 52.1911469, "longitude": -1.45514786}, {"scope": "G", "groupCode": "WK07", "name": "Solihull", "latitude": 52.409668, "longitude": -1.76117826}, {"scope": "G", "groupCode": "WK08", "name": "Sutton Coldfield", "latitude": 52.5509148, "longitude": -1.82547832}, {"scope": "G", "groupCode": "WK09", "name": "Castle Bromwich", "latitude": 52.5033569, "longitude": -1.69522643}, {"scope": "G", "groupCode": "WK10", "name": "South Birmingham", "latitude": 52.4161, "longitude": -1.960508}, {"scope": "S", "groupCode": "WK51", "name": "West Midlands Walking", "latitude": 52.31797, "longitude": -1.60323083}, {"scope": "S", "groupCode": "WK52", "name": "Bear", "latitude": 52.34797, "longitude": -1.63323081}, {"scope": "S", "groupCode": "WK53", "name": "West Midlands 40+", "latitude": 52.33297, "longitude": -1.57323086}, {"scope": "A", "groupCode": "WO", "name": "Worcestershire", "latitude": 52.2237358, "longitude": -2.16936755}, {"scope": "G", "groupCode": "WO01", "name": "Bromsgrove", "latitude": 52.36176, "longitude": -2.0160377}, {"scope": "G", "groupCode": "WO02", "name": "Wyre Forest", "latitude": 52.3795738, "longitude": -2.27464724}, {"scope": "G", "groupCode": "WO03", "name": "Redditch", "latitude": 52.28229, "longitude": -1.9518379}, {"scope": "G", "groupCode": "WO05", "name": "Evesham", "latitude": 52.09616, "longitude": -1.9756453}, {"scope": "G", "groupCode": "WO06", "name": "Worcester", "latitude": 52.20047, "longitude": -2.26225829}, {"scope": "A", "groupCode": "WR", "name": "West Riding", "latitude": 53.91146, "longitude": -1.730311}, {"scope": "G", "groupCode": "WR01", "name": "Bradford", "latitude": 53.80889, "longitude": -1.79108286}, {"scope": "G", "groupCode": "WR02", "name": "Calderdale", "latitude": 53.72118, "longitude": -1.97345555}, {"scope": "G", "groupCode": "WR04", "name": "Craven", "latitude": 54.07989, "longitude": -2.174591}, {"scope": "G", "groupCode": "WR05", "name": "North Kirklees", "latitude": 53.6732178, "longitude": -1.68268085}, {"scope": "G", "groupCode": "WR06", "name": "Harrogate", "latitude": 53.9950562, "longitude": -1.540775}, {"scope": "G", "groupCode": "WR07", "name": "Huddersfield", "latitude": 53.60056, "longitude": -1.81032348}, {"scope": "G", "groupCode": "WR08", "name": "Keighley", "latitude": 53.86209, "longitude": -1.93935788}, {"scope": "G", "groupCode": "WR09", "name": "Leeds", "latitude": 53.80206, "longitude": -1.534235}, {"scope": "G", "groupCode": "WR10", "name": "Lower Wharfedale", "latitude": 53.9065, "longitude": -1.79511869}, {"scope": "G", "groupCode": "WR11", "name": "Ripon", "latitude": 54.14722, "longitude": -1.656948}, {"scope": "G", "groupCode": "WR15", "name": "Wakefield and District Ramblers Group", "latitude": 53.6606636, "longitude": -1.41180313}, {"scope": "S", "groupCode": "WR50", "name": "Take a Hike group", "latitude": 53.91171, "longitude": -1.70115912}, {"scope": "A", "groupCode": "WS", "name": "South West Scotland", "latitude": 55.2613525, "longitude": -4.640846}, {"scope": "G", "groupCode": "WS01", "name": "Cunninghame", "latitude": 55.62567, "longitude": -5.00218773}, {"scope": "G", "groupCode": "WS02", "name": "Kilmarnock & Loudoun", "latitude": 55.48536, "longitude": -4.314339}, {"scope": "G", "groupCode": "WS03", "name": "South Ayrshire", "latitude": 55.2687569, "longitude": -4.68858242}, {"scope": "G", "groupCode": "WS04", "name": "Wigtownshire", "latitude": 54.92164, "longitude": -4.683846}, {"scope": "A", "groupCode": "WX", "name": "Hampshire", "latitude": 51.05818, "longitude": -1.28547168}, {"scope": "G", "groupCode": "WX01", "name": "Alton", "latitude": 51.1357269, "longitude": -0.976700246}, {"scope": "G", "groupCode": "WX02", "name": "Andover", "latitude": 51.21604, "longitude": -1.49616039}, {"scope": "G", "groupCode": "WX03", "name": "Meon", "latitude": 50.8641777, "longitude": -1.18015492}, {"scope": "G", "groupCode": "WX04", "name": "New Forest", "latitude": 50.85686, "longitude": -1.65060961}, {"scope": "G", "groupCode": "WX05", "name": "North East Hants", "latitude": 51.2830925, "longitude": -0.8775091}, {"scope": "G", "groupCode": "WX06", "name": "Portsmouth", "latitude": 50.820488, "longitude": -1.07844615}, {"scope": "G", "groupCode": "WX07", "name": "Romsey", "latitude": 51.0643272, "longitude": -1.53600729}, {"scope": "G", "groupCode": "WX08", "name": "Southampton", "latitude": 50.9080658, "longitude": -1.42022061}, {"scope": "G", "groupCode": "WX09", "name": "South East Hants", "latitude": 50.97632, "longitude": -0.9602927}, {"scope": "G", "groupCode": "WX10", "name": "Winchester", "latitude": 51.0819931, "longitude": -1.26567924}, {"scope": "G", "groupCode": "WX11", "name": "Waltham", "latitude": 50.9697456, "longitude": -1.17574644}, {"scope": "G", "groupCode": "WX12", "name": "Eastleigh", "latitude": 50.9330559, "longitude": -1.32722223}, {"scope": "G", "groupCode": "WX13", "name": "North Hampshire Downs", "latitude": 51.27346, "longitude": -1.20098555}, {"scope": "S", "groupCode": "WX50", "name": "Hampshire 20s & 30s Walking Group", "latitude": 51.0581627, "longitude": -1.31560612}, {"scope": "S", "groupCode": "WX51", "name": "Hampshire 40+ Walking", "latitude": 51.0602455, "longitude": -1.25393808}]